{
  "mlb": [
    {
      "id":1,
      "tricode":"ARI",
      "city":"Arizona",
      "league":"National",
      "division":"West",
      "full_name":"Arizona Diamondbacks",
      "name":"Diamondbacks"
      
    },
    {
        "id":2,
        "tricode":"ATL",
        "city":"Atlanta",
        "league":"National",
        "division":"East",
        "full_name":"Atlanta Braves",
        "name":"Braves"
        
      },
      {
        "id":3,
        "tricode":"BAL",
        "city":"Baltimore",
        "league":"American",
        "division":"East",
        "full_name":"Baltimore Orioles",
        "name":"Orioles"
        
      },
      {
        "id":4,
        "tricode":"BOS",
        "city":"Boston",
        "league":"American",
        "division":"East",
        "full_name":"Boston Red Sox",
        "name":"Red Sox"
        
      },
      {
        "id":5,
        "tricode":"CHC",
        "city":"Chicago",
        "league":"National",
        "division":"Central",
        "full_name":"Chicago Cubs",
        "name":"Cubs"
        
      },
      {
        "id":6,
        "tricode":"CWS",
        "city":"Chicago",
        "league":"American",
        "division":"Central",
        "full_name":"Chicago White Sox",
        "name":"White Sox"
        
      },
      {
        "id":7,
        "tricode":"CIN",
        "city":"Cincinnati",
        "league":"National",
        "division":"Central",
        "full_name":"Cincinnati Reds",
        "name":"Reds"
        
      },
      {
        "id":8,
        "tricode":"CLE",
        "city":"Cleveland",
        "league":"American",
        "division":"Central",
        "full_name":"Cleveland Guardians",
        "name":"Guardians"
        
      },
      {
        "id":9,
        "tricode":"COL",
        "city":"Colorado",
        "league":"National",
        "division":"West",
        "full_name":"Colorado Rockies",
        "name":"Rockies"
        
      },
      {
        "id":10,
        "tricode":"DET",
        "city":"Detroit",
        "league":"American",
        "division":"Central",
        "full_name":"Detroit Tigers",
        "name":"Tigers"
      },
      {
        "id":11,
        "tricode":"HOU",
        "city":"Houston",
        "league":"American",
        "division":"West",
        "full_name":"Houston Astros",
        "name":"Astros"
      },
      {
        "id":12,
        "tricode":"KC",
        "city":"Kansas City",
        "league":"American",
        "division":"Central",
        "full_name":"Kansas City Royals",
        "name":"Royals"
      },
      {
        "id":13,
        "tricode":"LAA",
        "city":"Los Angeles",
        "league":"American",
        "division":"West",
        "full_name":"Los Angeles Angels",
        "name":"Angels"
      },
      {
        "id":14,
        "tricode":"LAD",
        "city":"Los Angeles",
        "league":"National",
        "division":"West",
        "full_name":"Los Angeles Dodgers",
        "name":"Dodgers"
      },
      {
        "id":15,
        "tricode":"MIA",
        "city":"Miami",
        "league":"National",
        "division":"East",
        "full_name":"Miami Marlins",
        "name":"Marlins"
      },
      {
        "id":16,
        "tricode":"MIL",
        "city":"Milwaukee",
        "league":"National",
        "division":"Central",
        "full_name":"Milwaukee Brewers",
        "name":"Brewers"
      },
      {
        "id":17,
        "tricode":"MIN",
        "city":"Minnesota",
        "league":"American",
        "division":"Central",
        "full_name":"Minnesota Twins",
        "name":"Twins"
      },
      {
        "id":18,
        "tricode":"NYM",
        "city":"New York",
        "league":"National",
        "division":"East",
        "full_name":"New York Mets",
        "name":"Mets"
      },
      {
        "id":19,
        "tricode":"NYY",
        "city":"New York",
        "league":"American",
        "division":"East",
        "full_name":"New York Yankees",
        "name":"Yankees"
      },
      {
        "id":20,
        "tricode":"ATH",
        "city":"",
        "league":"American",
        "division":"West",
        "full_name":"Athletics",
        "name":"Athletics",
        "short_name":"A's"
      },
      {
        "id":21,
        "tricode":"PHI",
        "city":"Philadelphia",
        "league":"National",
        "division":"East",
        "full_name":"Philadelphia Phillies",
        "name":"Phillies"
      },
      {
        "id":22,
        "tricode":"PIT",
        "city":"Pittsburgh",
        "league":"National",
        "division":"Central",
        "full_name":"Pittsburgh Pirates",
        "name":"Pirates"
      },
      {
        "id":23,
        "tricode":"SD",
        "city":"San Diego",
        "league":"National",
        "division":"West",
        "full_name":"San Diego Padres",
        "name":"Padres"
      },
      {
        "id":24,
        "tricode":"SF",
        "city":"San Francisco",
        "league":"National",
        "division":"West",
        "full_name":"San Francisco Giants",
        "name":"Giants"
      },
      {
        "id":25,
        "tricode":"SEA",
        "city":"Seattle",
        "league":"American",
        "division":"West",
        "full_name":"Seattle Mariners",
        "name":"Mariners"
      },
      {
        "id":26,
        "tricode":"STL",
        "city":"St. Louis",
        "league":"National",
        "division":"Central",
        "full_name":"St. Louis Cardinals",
        "name":"Cardinals",
        "short_name":"Cards"
      },
      {
        "id":27,
        "tricode":"TB",
        "city":"Tampa Bay",
        "league":"American",
        "division":"East",
        "full_name":"Tampa Bay Rays",
        "name":"Rays"
      },
      {
        "id":28,
        "tricode":"TEX",
        "city":"Texas",
        "league":"American",
        "division":"West",
        "full_name":"Texas Rangers",
        "name":"Rangers"
      },
      {
        "id":29,
        "tricode":"TOR",
        "city":"Toronto",
        "league":"American",
        "division":"East",
        "full_name":"Toronto Blue Jays",
        "name":"Blue Jays"
      },
      {
        "id":30,
        "tricode":"WSH",
        "city":"Washington",
        "league":"National",
        "division":"East",
        "full_name":"Washington Nationals",
        "name":"Nationals"
        
      }
  ],
  
  "nba": [
    {
      "id":1,
      "tricode":"ATL",
      "city":"Atlanta",
      "division":"Southeast",
      "full_name":"Atlanta Hawks",
      "name":"Hawks"
      
    },
    {
        "id":2,
        "tricode":"BKN",
        "city":"Brooklyn",
        "division":"Atlantic",
        "full_name":"Brooklyn Nets",
        "name":"Nets"
      },
      {
        "id":3,
        "tricode":"BOS",
        "city":"Boston",
        "division":"Atlantic",
        "full_name":"Boston Celtics",
        "name":"Celtics"
      },
      {
        "id":4,
        "tricode":"CHA",
        "city":"Charlotte",
        "division":"Southeast",
        "full_name":"Charlotte Hornets",
        "name":"Hornets"
      },
      {
        "id":5,
        "tricode":"CHI",
        "city":"Chicago",
        "division":"Central",
        "full_name":"Chicago Bulls",
        "name":"Bulls"
      },
      {
        "id":6,
        "tricode":"CLE",
        "city":"Cleveland",
        "division":"Central",
        "full_name":"Cleveland Cavaliers",
        "name":"Cavaliers",
        "nickname": "Cavs"
      },
      {
        "id":7,
        "tricode":"DAL",
        "city":"Dallas",
        "division":"Southwest",
        "full_name":"Dallas Mavericks",
        "name":"Mavericks",
        "nickname":"Mavs"
      },
      {
        "id":8,
        "tricode":"DEN",
        "city":"Denver",
        "division":"Northwest",
        "full_name":"Denver Nuggets",
        "name":"Nuggets"
      },
      {
        "id":9,
        "tricode":"DET",
        "city":"Detroit",
        "division":"Central",
        "full_name":"Detroit Pistons",
        "name":"Pistons"
      },
      {
        "id":10,
        "tricode":"GSW",
        "city":"Golden State",
        "division":"Pacific",
        "full_name":"Golden State Warriors",
        "name":"Warriors"
      },
      {
        "id":11,
        "tricode":"HOU",
        "city":"Houston",
        "division":"Southwest",
        "full_name":"Houston Rockets",
        "name":"Rockets"
      },
      {
        "id":12,
        "tricode":"IND",
        "city":"Indiana",
        "division":"Central",
        "full_name":"Indiana Pacers",
        "name":"Pacers"
      },
      {
        "id":13,
        "tricode":"LAC",
        "city":"Los Angeles",
        "division":"Pacific",
        "full_name":"Los Angeles Clippers",
        "name":"Clippers"
      },
      {
        "id":14,
        "tricode":"LAL",
        "city":"Los Angeles",
        "division":"Pacific",
        "full_name":"Los Angeles Lakers",
        "name":"Lakers"
      },
      {
        "id":15,
        "tricode":"MEM",
        "city":"Memphis",
        "division":"Southwest",
        "full_name":"Memphis Grizzlies",
        "name":"Grizzlies"
      },
      {
        "id":16,
        "tricode":"MIA",
        "city":"Miami",
        "division":"Southeast",
        "full_name":"Miami Heat",
        "name":"Heat"
      },
      {
        "id":17,
        "tricode":"MIL",
        "city":"Milwaukee",
        "division":"Central",
        "full_name":"Milwaukee Bucks",
        "name":"Bucks"
      },
      {
        "id":18,
        "tricode":"MIN",
        "city":"Minnesota",
        "division":"Northwest",
        "full_name":"Minnesota Timberwolves",
        "name":"Timberwolves",
        "nickname":"Wolves"
      },
      {
        "id":19,
        "tricode":"NOP",
        "city":"New Orleans",
        "division":"Southwest",
        "full_name":"New Orleans Pelicans",
        "name":"Pelicans"
      },
      {
        "id":20,
        "tricode":"NYK",
        "city":"New York",
        "division":"Atlantic",
        "full_name":"New York Knicks",
        "name":"Knicks"
      },
      {
        "id":21,
        "tricode":"OKC",
        "city":"Oklahoma City",
        "division":"Northwest",
        "full_name":"Oklahoma City Thunder",
        "name":"Thunder"
      },
      {
        "id":22,
        "tricode":"ORL",
        "city":"Orlando",
        "division":"Southeast",
        "full_name":"Orlando Magic",
        "name":"Magic"
      },
      {
        "id":23,
        "tricode":"PHI",
        "city":"Philadelphia",
        "division":"Atlantic",
        "full_name":"Philadephia 76ers",
        "name":"76ers",
        "nickname":"Sixers"
      },
      {
        "id":24,
        "tricode":"PHX",
        "city":"Phoenix",
        "division":"Pacific",
        "full_name":"Phoenix Suns",
        "name":"Suns"
      },
      {
        "id":25,
        "tricode":"POR",
        "city":"Portland",
        "division":"Northwest",
        "full_name":"Portland Trail Blazers",
        "name":"Trail Blazers",
        "nickname":"Blazers"
      },
      {
        "id":26,
        "tricode":"SAC",
        "city":"Sacramento",
        "division":"Pacific",
        "full_name":"Sacramento Kings",
        "name":"Kings"
      },
      {
        "id":27,
        "tricode":"SAS",
        "city":"San Antonio",
        "division":"Southwest",
        "full_name":"San Antonio Spurs",
        "name":"Spurs"
      },
      {
        "id":28,
        "tricode":"TOR",
        "city":"Toronto",
        "division":"Atlantic",
        "full_name":"Toronto Raptors",
        "name":"Raptors"
      },
      {
        "id":29,
        "tricode":"UTA",
        "city":"Utah",
        "division":"Northwest",
        "full_name":"Utah Jazz",
        "name":"Jazz"
      },
      {
        "id":30,
        "tricode":"WAS",
        "city":"Washington",
        "division":"Southeast",
        "full_name":"Washington Wizards",
        "name":"Wizards"
      }
  ],

  "nhl": [
    {
      "id": 1,
      "tricode":"ANA",
      "city":"Anaheim",
      "conference":"Western",
      "division":"Pacific",
      "full_name":"Anaheim Ducks",
      "name":"Ducks"
    },
    {
      "id": 2,
      "tricode":"BOS",
      "city":"Boston",
      "conference":"Eastern",
      "division":"Atlantic",
      "full_name":"Boston Bruins",
      "name":"Bruins"
    },
    {
      "id": 3,
      "tricode":"BUF",
      "city":"Buffalo",
      "conference":"Eastern",
      "division":"Atlantic",
      "full_name":"Buffalo Sabres",
      "name":"Sabres"
    },
    {
      "id": 4,
      "tricode":"CAR",
      "city":"Carolina",
      "conference":"Eastern",
      "division":"Metropolitan",
      "full_name":"Carolina Hurricanes",
      "name":"Hurricanes",
      "nickname":"Canes"
    },
    {
      "id": 5,
      "tricode":"CBJ",
      "city":"Columbus",
      "conference":"Eastern",
      "division":"Metropolitan",
      "full_name":"Columbus Blue Jackets",
      "name":"Blue Jackets"
    },
    {
      "id": 6,
      "tricode":"CGY",
      "city":"Calgary",
      "conference":"Western",
      "division":"Pacific",
      "full_name":"Calgary Flames",
      "name":"Flames"
    },
    {
      "id": 7,
      "tricode":"CHI",
      "city":"Chicago",
      "conference":"Western",
      "division":"Central",
      "full_name":"Chicago Blackhawks",
      "name":"Blackhawks"
    },
    {
      "id": 8,
      "tricode":"COL",
      "city":"Colorado",
      "conference":"Western",
      "division":"Central",
      "full_name":"Colorado Avalanche",
      "name":"Avalanche"
    },
    {
      "id": 9,
      "tricode":"DAL",
      "city":"Dallas",
      "conference":"Western",
      "division":"Central",
      "full_name":"Dallas Stars",
      "name":"Stars"
    },
    {
      "id": 10,
      "tricode":"DET",
      "city":"Detroit",
      "conference":"Eastern",
      "division":"Atlantic",
      "full_name":"Detroit Red Wings",
      "name":"Red Wings"
    },
    {
      "id": 11,
      "tricode":"EDM",
      "city":"Edmonton",
      "conference":"Western",
      "division":"Pacific",
      "full_name":"Edmonton Oilers",
      "name":"Oilers"
    },
    {
      "id": 12,
      "tricode":"FLA",
      "city":"Florida",
      "conference":"Eastern",
      "division":"Atlantic",
      "full_name":"Florida Panthers",
      "name":"Panthers"
    },
    {
      "id": 13,
      "tricode":"LAK",
      "city":"Los Angeles",
      "conference":"Western",
      "division":"Pacific",
      "full_name":"Los Angeles Kings",
      "name":"Kings"
    },
    {
      "id": 14,
      "tricode":"MIN",
      "city":"Minnesota",
      "conference":"Western",
      "division":"Central",
      "full_name":"Minnesota Wild",
      "name":"Wild"
    },
    {
      "id": 15,
      "tricode":"MTL",
      "city":"Montreal",
      "conference":"Eastern",
      "division":"Atlantic",
      "full_name":"Montreal Canadiens",
      "name":"Canadiens"
    },
    {
      "id": 16,
      "tricode":"NJD",
      "city":"New Jersey",
      "conference":"Eastern",
      "division":"Metropolitan",
      "full_name":"New Jersey Devils",
      "name":"Devils"
    },
    {
      "id": 17,
      "tricode":"NSH",
      "city":"Nashville",
      "conference":"Western",
      "division":"Central",
      "full_name":"Nashville Predators",
      "name":"Predators"
    },
    {
      "id": 18,
      "tricode":"NYI",
      "city":"New York",
      "conference":"Eastern",
      "division":"Metropolitan",
      "full_name":"New York Islanders",
      "name":"Islanders"
    },
    {
      "id": 19,
      "tricode":"NYR",
      "city":"New York",
      "conference":"Eastern",
      "division":"Metropolitan",
      "full_name":"New York Rangers",
      "name":"Rangers"
    },
    {
      "id": 20,
      "tricode":"OTT",
      "city":"Ottawa",
      "conference":"Eastern",
      "division":"Atlantic",
      "full_name":"Ottawa Senators",
      "name":"Senators"
    },
    {
      "id": 21,
      "tricode":"PHI",
      "city":"Philadelphia",
      "conference":"Eastern",
      "division":"Metropolitan",
      "full_name":"Philadelphia Flyers",
      "name":"Flyers"
    },
    {
      "id": 22,
      "tricode":"PIT",
      "city":"Pittsburgh",
      "conference":"Eastern",
      "division":"Metropolitan",
      "full_name":"Pittsburgh Penguins",
      "name":"Penguins"
    },
    {
      "id": 23,
      "tricode":"SEA",
      "city":"Seattle",
      "conference":"Western",
      "division":"Pacific",
      "full_name":"Seattle Kraken",
      "name":"Kraken"
    },
    {
      "id": 24,
      "tricode":"SJS",
      "city":"San Jose",
      "conference":"Western",
      "division":"Pacific",
      "full_name":"San Jose Sharks",
      "name":"Sharks"
    },
    {
      "id": 25,
      "tricode":"STL",
      "city":"St. Louis",
      "conference":"Western",
      "division":"Central",
      "full_name":"St. Louis Blues",
      "name":"Blues"
    },
    {
      "id": 26,
      "tricode":"TBL",
      "city":"Tampa Bay",
      "conference":"Eastern",
      "division":"Atlantic",
      "full_name":"Tampa Bay Lightning",
      "name":"Lightning"
    },
    {
      "id": 27,
      "tricode":"TOR",
      "city":"Toronto",
      "conference":"Eastern",
      "division":"Atlantic",
      "full_name":"Toronto Maple Leafs",
      "name":"Maple Leafs"
    },
    {
      "id": 28,
      "tricode":"UTA",
      "city":"Utah",
      "conference":"Western",
      "division":"Central",
      "full_name":"Utah Hockey Club",
      "name":"Hockey Club"
    },
    {
      "id": 29,
      "tricode":"VAN",
      "city":"Vancouver",
      "conference":"Western",
      "division":"Pacific",
      "full_name":"Vancouver Canucks",
      "name":"Canucks"
    },
    {
      "id": 30,
      "tricode":"VGK",
      "city":"Vegas",
      "conference":"Western",
      "division":"Pacific",
      "full_name":"Las Vegas Golden Knights",
      "name":"Golden Knights"
    },
    {
      "id": 31,
      "tricode":"WPG",
      "city":"Winnipeg",
      "conference":"Western",
      "division":"Central",
      "full_name":"Winnipeg Jets",
      "name":"Jets"
    },
    {
      "id": 32,
      "tricode":"WSH",
      "city":"Washington",
      "conference":"Eastern",
      "division":"Metropolitan",
      "full_name":"Washington Capitals",
      "name":"Capitals"
    }
  ],

  "unrivaled": [
    {
      "id": 1,
      "tricode":"LBC",
      "city":"Laces",
      "full_name":"Laces Basketball Club",
      "short_name":"Laces BC",
      "location":"Miami",
      "name":"Laces"
    },
    {
      "id": 2,
      "tricode":"LOBC",
      "city":"Lunar Owls",
      "full_name":"Lunar Owls Basketball Club",
      "short_name":"Lunar Owls BC",
      "location":"Miami",
      "name":"Lunar Owls"
    },
    {
      "id": 3,
      "tricode":"MBC",
      "city":"Mist",
      "full_name":"Mist Basketball Club",
      "short_name":"Mist BC",
      "location":"Miami",
      "name":"Mist"
    },
    {
      "id": 4,
      "tricode":"PBC",
      "city":"Phantom",
      "full_name":"Phantom Basketball Club",
      "short_name":"Phantom BC",
      "location":"Miami",
      "name":"Phantom"
    },
    {
      "id": 5,
      "tricode":"RBC",
      "city":"Rose",
      "full_name":"Rose Basketball Club",
      "short_name":"Rose BC",
      "location":"Miami",
      "name":"Rose"
    },
    {
      "id": 6,
      "tricode":"VBC",
      "city":"Vinyl",
      "full_name":"Vinyl Basketball Club",
      "short_name":"Vinyl BC",
      "location":"Miami",
      "name":"Vinyl"
    }
    
  ]
  
}